[{"bom_id":23090,"name":"ADELAIDE (KENT TOWN)","lat":-34.9211,"lng":138.6216,"wmo":"94675","height":"48.0","current":true,"state":"SA"},{"bom_id":23034,"name":"ADELAIDE AIRPORT","lat":-34.9524,"lng":138.5204,"wmo":"94672","height":"2.0","current":true,"state":"SA"},{"bom_id":200735,"name":"ADELE ISLAND","lat":-15.5114,"lng":123.1556,"wmo":"94210","height":"4.6","current":true,"state":"WA"},{"bom_id":90180,"name":"AIREYS INLET","lat":-38.4583,"lng":144.0883,"wmo":"94846","height":"95.0","current":true,"state":"VIC"},{"bom_id":9999,"name":"ALBANY AIRPORT","lat":-34.9411,"lng":117.8158,"wmo":"94802","height":"68.4","current":true,"state":"WA"},{"bom_id":9741,"name":"ALBANY AIRPORT COMPARISON","lat":-34.9414,"lng":117.8022,"wmo":"95802","height":"68.0","current":true,"state":"WA"},{"bom_id":68241,"name":"ALBION PARK (WOLLONGONG AIRPORT)","lat":-34.5638,"lng":150.79,"wmo":"95748","height":"8.0","current":true,"state":"NSW"},{"bom_id":72160,"name":"ALBURY AIRPORT AWS","lat":-36.069,"lng":146.9509,"wmo":"95896","height":"163.5","current":true,"state":"NSW"},{"bom_id":15590,"name":"ALICE SPRINGS AIRPORT","lat":-23.7951,"lng":133.889,"wmo":"94326","height":"546.0","current":true,"state":"NT"},{"bom_id":33295,"name":"ALVA BEACH","lat":-19.4569,"lng":147.4833,"wmo":"95296","height":"7.5","current":true,"state":"QLD"},{"bom_id":40004,"name":"AMBERLEY AMO","lat":-27.6297,"lng":152.7111,"wmo":"94568","height":"24.2","current":true,"state":"QLD"},{"bom_id":41175,"name":"APPLETHORPE","lat":-28.6217,"lng":151.9533,"wmo":"94553","height":"871.6","current":true,"state":"QLD"},{"bom_id":40211,"name":"ARCHERFIELD AIRPORT","lat":-27.5717,"lng":153.0078,"wmo":"94575","height":"12.5","current":true,"state":"QLD"},{"bom_id":2064,"name":"ARGYLE AERODROME","lat":-16.6381,"lng":128.4517,"wmo":"94217","height":"164.0","current":true,"state":"WA"},{"bom_id":56238,"name":"ARMIDALE AIRPORT AWS","lat":-30.5273,"lng":151.6158,"wmo":"95773","height":"1079.0","current":true,"state":"NSW"},{"bom_id":87113,"name":"AVALON AIRPORT","lat":-38.0287,"lng":144.4783,"wmo":"94854","height":"10.6","current":true,"state":"VIC"},{"bom_id":33002,"name":"AYR DPI RESEARCH STN","lat":-19.6169,"lng":147.3758,"wmo":"95295","height":"17.0","current":true,"state":"QLD"},{"bom_id":67108,"name":"BADGERYS CREEK AWS","lat":-33.8969,"lng":150.7281,"wmo":"94752","height":"81.2","current":true,"state":"NSW"},{"bom_id":9037,"name":"BADGINGARRA RESEARCH STN","lat":-30.3381,"lng":115.5394,"wmo":"94603","height":"275.0","current":true,"state":"WA"},{"bom_id":85279,"name":"BAIRNSDALE AIRPORT","lat":-37.8817,"lng":147.5669,"wmo":"94912","height":"49.4","current":true,"state":"VIC"},{"bom_id":89002,"name":"BALLARAT AERODROME","lat":-37.5127,"lng":143.7911,"wmo":"94852","height":"435.2","current":true,"state":"VIC"},{"bom_id":45009,"name":"BALLERA GAS FIELD","lat":-27.4008,"lng":141.8114,"wmo":"95487","height":"114.5","current":true,"state":"QLD"},{"bom_id":58198,"name":"BALLINA AIRPORT AWS","lat":-28.8353,"lng":153.5585,"wmo":"94596","height":"1.3","current":true,"state":"NSW"},{"bom_id":66137,"name":"BANKSTOWN AIRPORT AWS","lat":-33.9181,"lng":150.9864,"wmo":"94765","height":"6.5","current":true,"state":"NSW"},{"bom_id":5094,"name":"BARROW ISLAND AIRPORT","lat":-20.875,"lng":115.4056,"wmo":"95304","height":"6.4","current":true,"state":"WA"},{"bom_id":14272,"name":"BATCHELOR AERO","lat":-13.0545,"lng":131.0252,"wmo":"94125","height":"104.0","current":true,"state":"NT"},{"bom_id":63291,"name":"BATHURST AIRPORT AWS","lat":-33.412,"lng":149.654,"wmo":"94729","height":"744.5","current":true,"state":"NSW"},{"bom_id":40983,"name":"BEAUDESERT DRUMLEY STREET","lat":-27.9707,"lng":152.9898,"wmo":"95575","height":"47.8","current":true,"state":"QLD"},{"bom_id":4100,"name":"BEDOUT ISLAND","lat":-19.5886,"lng":119.0997,"wmo":"94310","height":"9.0","current":true,"state":"WA"},{"bom_id":40284,"name":"BEERBURRUM FOREST STATION","lat":-26.9586,"lng":152.9619,"wmo":"95566","height":"48.0","current":true,"state":"QLD"},{"bom_id":69139,"name":"BEGA AWS","lat":-36.6722,"lng":149.8191,"wmo":"95931","height":"41.0","current":true,"state":"NSW"},{"bom_id":68228,"name":"BELLAMBI AWS","lat":-34.3691,"lng":150.9291,"wmo":"94749","height":"10.0","current":true,"state":"NSW"},{"bom_id":81123,"name":"BENDIGO AIRPORT","lat":-36.7395,"lng":144.3266,"wmo":"94855","height":"208.0","current":true,"state":"VIC"},{"bom_id":9240,"name":"BICKLEY","lat":-32.0072,"lng":116.1369,"wmo":"95610","height":"384.0","current":true,"state":"WA"},{"bom_id":38026,"name":"BIRDSVILLE AIRPORT","lat":-25.8975,"lng":139.3472,"wmo":"95482","height":"46.6","current":true,"state":"QLD"},{"bom_id":36034,"name":"BLACKALL AIRPORT","lat":-24.4303,"lng":145.4306,"wmo":"95351","height":"281.3","current":true,"state":"QLD"},{"bom_id":70328,"name":"BOMBALA AWS","lat":-37.0016,"lng":149.2336,"wmo":"94929","height":"760.5","current":true,"state":"NSW"},{"bom_id":14723,"name":"BORROLOOLA","lat":-16.0757,"lng":136.3041,"wmo":"94152","height":"16.1","current":true,"state":"NT"},{"bom_id":200840,"name":"BOUGAINVILLE REEF","lat":-15.4877,"lng":147.1183,"wmo":"95288","height":"0.0","current":true,"state":"QLD"},{"bom_id":48245,"name":"BOURKE AIRPORT AWS","lat":-30.0362,"lng":145.9521,"wmo":"94703","height":"107.3","current":true,"state":"NSW"},{"bom_id":14954,"name":"BRADSHAW","lat":-14.9408,"lng":130.8092,"wmo":"94130","height":"75.0","current":true,"state":"NT"},{"bom_id":69132,"name":"BRAIDWOOD RACECOURSE AWS","lat":-35.4253,"lng":149.7835,"wmo":"94927","height":"665.2","current":true,"state":"NSW"},{"bom_id":87184,"name":"BREAKWATER (GEELONG RACECOURSE)","lat":-38.1737,"lng":144.3765,"wmo":"94857","height":"12.9","current":true,"state":"VIC"},{"bom_id":9617,"name":"BRIDGETOWN","lat":-33.9486,"lng":116.1311,"wmo":"95632","height":"178.7","current":true,"state":"WA"},{"bom_id":40913,"name":"BRISBANE","lat":-27.4808,"lng":153.0389,"wmo":"94576","height":"8.1","current":true,"state":"QLD"},{"bom_id":40842,"name":"BRISBANE AERO","lat":-27.3917,"lng":153.1292,"wmo":"94578","height":"4.5","current":true,"state":"QLD"},{"bom_id":47048,"name":"BROKEN HILL AIRPORT AWS","lat":-32.0012,"lng":141.4694,"wmo":"94691","height":"281.3","current":true,"state":"NSW"},{"bom_id":3003,"name":"BROOME AIRPORT","lat":-17.9475,"lng":122.2353,"wmo":"94203","height":"7.4","current":true,"state":"WA"},{"bom_id":3102,"name":"BROOME NTC AWS","lat":-18.0008,"lng":122.2183,"wmo":"95202","height":"0.0","current":true,"state":"WA"},{"bom_id":200784,"name":"BROWSE ISLAND","lat":-14.1089,"lng":123.5472,"wmo":"94103","height":"3.7","current":true,"state":"WA"},{"bom_id":14627,"name":"BULMAN AWS","lat":-13.6714,"lng":134.3414,"wmo":"94143","height":"103.4","current":true,"state":"NT"},{"bom_id":9965,"name":"BUNBURY","lat":-33.3567,"lng":115.6447,"wmo":"94604","height":"5.2","current":true,"state":"WA"},{"bom_id":39128,"name":"BUNDABERG AERO","lat":-24.9069,"lng":152.323,"wmo":"94387","height":"30.8","current":true,"state":"QLD"},{"bom_id":29077,"name":"BURKETOWN AIRPORT","lat":-17.7483,"lng":139.5356,"wmo":"94260","height":"5.7","current":true,"state":"QLD"},{"bom_id":91344,"name":"BURNIE NTC AWS","lat":-41.05,"lng":145.9149,"wmo":"95963","height":"0.0","current":true,"state":"TAS"},{"bom_id":95003,"name":"BUSHY PARK (BUSHY PARK ESTATES)","lat":-42.7097,"lng":146.8983,"wmo":"94964","height":"27.0","current":true,"state":"TAS"},{"bom_id":9603,"name":"BUSSELTON AERO","lat":-33.6858,"lng":115.4008,"wmo":"95611","height":"16.3","current":true,"state":"WA"},{"bom_id":96003,"name":"BUTLERS GORGE","lat":-42.2753,"lng":146.2758,"wmo":"94959","height":"667.0","current":true,"state":"TAS"},{"bom_id":58216,"name":"BYRON BAY (CAPE BYRON AWS)","lat":-28.6399,"lng":153.6358,"wmo":"94599","height":"95.0","current":true,"state":"NSW"},{"bom_id":72161,"name":"CABRAMURRA SMHEA AWS","lat":-35.9371,"lng":148.3779,"wmo":"95916","height":"1482.4","current":true,"state":"NSW"},{"bom_id":31011,"name":"CAIRNS AERO","lat":-16.8736,"lng":145.7458,"wmo":"94287","height":"2.2","current":true,"state":"QLD"},{"bom_id":68192,"name":"CAMDEN AIRPORT AWS","lat":-34.0391,"lng":150.689,"wmo":"94755","height":"73.9","current":true,"state":"NSW"},{"bom_id":37010,"name":"CAMOOWEAL TOWNSHIP","lat":-19.9225,"lng":138.1214,"wmo":"94255","height":"231.2","current":true,"state":"QLD"},{"bom_id":94212,"name":"CAMPANIA (KINCORA)","lat":-42.6867,"lng":147.4258,"wmo":"95972","height":"45.0","current":true,"state":"TAS"},{"bom_id":68257,"name":"CAMPBELLTOWN (MOUNT ANNAN)","lat":-34.0615,"lng":150.7735,"wmo":"94757","height":"112.0","current":true,"state":"NSW"},{"bom_id":70351,"name":"CANBERRA AIRPORT","lat":-35.3088,"lng":149.2003,"wmo":"94926","height":"577.1","current":true,"state":"NSW"},{"bom_id":66194,"name":"CANTERBURY RACECOURSE AWS","lat":-33.9057,"lng":151.1134,"wmo":"94766","height":"3.0","current":true,"state":"NSW"},{"bom_id":22823,"name":"CAPE BORDA","lat":-35.7549,"lng":136.5959,"wmo":"95805","height":"158.0","current":true,"state":"SA"},{"bom_id":94198,"name":"CAPE BRUNY (CAPE BRUNY)","lat":-43.4886,"lng":147.1444,"wmo":"95967","height":"59.7","current":true,"state":"TAS"},{"bom_id":14245,"name":"CAPE DON","lat":-11.3081,"lng":131.7651,"wmo":"94129","height":"19.0","current":true,"state":"NT"},{"bom_id":32182,"name":"CAPE FERGUSON NTC AWS","lat":-19.2774,"lng":147.0586,"wmo":"94297","height":"0.0","current":true,"state":"QLD"},{"bom_id":31213,"name":"CAPE FLATTERY","lat":-14.9672,"lng":145.3106,"wmo":"94188","height":"18.5","current":true,"state":"QLD"},{"bom_id":91331,"name":"CAPE GRIM","lat":-40.6764,"lng":144.6922,"wmo":"95954","height":"86.0","current":true,"state":"TAS"},{"bom_id":91245,"name":"CAPE GRIM BAPS (COMPARISON)","lat":-40.6828,"lng":144.69,"wmo":"94954","height":"94.0","current":true,"state":"TAS"},{"bom_id":26095,"name":"CAPE JAFFA (THE LIMESTONE)","lat":-36.9655,"lng":139.7164,"wmo":"94813","height":"17.0","current":true,"state":"SA"},{"bom_id":9518,"name":"CAPE LEEUWIN","lat":-34.3728,"lng":115.1358,"wmo":"94601","height":"13.0","current":true,"state":"WA"},{"bom_id":40043,"name":"CAPE MORETON LIGHTHOUSE","lat":-27.0314,"lng":153.4661,"wmo":"94594","height":"99.9","current":true,"state":"QLD"},{"bom_id":9519,"name":"CAPE NATURALISTE","lat":-33.5372,"lng":115.0189,"wmo":"94600","height":"109.0","current":true,"state":"WA"},{"bom_id":90184,"name":"CAPE NELSON LIGHTHOUSE","lat":-38.4306,"lng":141.5437,"wmo":"94826","height":"45.4","current":true,"state":"VIC"},{"bom_id":90015,"name":"CAPE OTWAY LIGHTHOUSE","lat":-38.8556,"lng":143.5128,"wmo":"94842","height":"82.0","current":true,"state":"VIC"},{"bom_id":97000,"name":"CAPE SORELL","lat":-42.1986,"lng":145.17,"wmo":"94974","height":"19.3","current":true,"state":"TAS"},{"bom_id":200786,"name":"CAPE WESSEL","lat":-11.0045,"lng":136.7588,"wmo":"94147","height":"18.0","current":true,"state":"NT"},{"bom_id":22803,"name":"CAPE WILLOUGHBY","lat":-35.8426,"lng":138.1327,"wmo":"94822","height":"55.0","current":true,"state":"SA"},{"bom_id":6011,"name":"CARNARVON AIRPORT","lat":-24.8878,"lng":113.67,"wmo":"94300","height":"4.0","current":true,"state":"WA"},{"bom_id":300017,"name":"CASEY","lat":-66.2825,"lng":110.5231,"wmo":"89611","height":"40.0","current":true,"state":"ANT"},{"bom_id":300060,"name":"CASEY SKIWAY SOUTH","lat":-66.2861,"lng":110.7633,"wmo":"89809","height":"392.0","current":true,"state":"ANT"},{"bom_id":58208,"name":"CASINO AIRPORT AWS","lat":-28.8775,"lng":153.052,"wmo":"94573","height":"20.9","current":true,"state":"NSW"},{"bom_id":90182,"name":"CASTERTON","lat":-37.583,"lng":141.3339,"wmo":"95825","height":"130.6","current":true,"state":"VIC"},{"bom_id":200601,"name":"CATO ISLAND","lat":-23.2503,"lng":155.542,"wmo":"94394","height":"6.3","current":true,"state":"QLD"},{"bom_id":18012,"name":"CEDUNA AMO","lat":-32.1297,"lng":133.6976,"wmo":"94653","height":"15.3","current":true,"state":"SA"},{"bom_id":14909,"name":"CENTRAL ARNHEM PLATEAU","lat":-13.3275,"lng":133.0861,"wmo":"94141","height":"416.0","current":true,"state":"NT"},{"bom_id":14703,"name":"CENTRE ISLAND","lat":-15.7426,"lng":136.8192,"wmo":"94248","height":"12.2","current":true,"state":"NT"},{"bom_id":29167,"name":"CENTURY MINE","lat":-18.7569,"lng":138.7056,"wmo":"94261","height":"126.8","current":true,"state":"QLD"},{"bom_id":86361,"name":"CERBERUS","lat":-38.3646,"lng":145.1785,"wmo":"94898","height":"12.7","current":true,"state":"VIC"},{"bom_id":61260,"name":"CESSNOCK AIRPORT AWS","lat":-32.7886,"lng":151.3377,"wmo":"95771","height":"61.0","current":true,"state":"NSW"},{"bom_id":44021,"name":"CHARLEVILLE AERO","lat":-26.4139,"lng":146.2558,"wmo":"94510","height":"301.6","current":true,"state":"QLD"},{"bom_id":80128,"name":"CHARLTON","lat":-36.2847,"lng":143.3341,"wmo":"94839","height":"131.7","current":true,"state":"VIC"},{"bom_id":200790,"name":"CHRISTMAS ISLAND AERO","lat":-10.4528,"lng":105.6875,"wmo":"96995","height":"261.0","current":true,"state":"WA"},{"bom_id":21131,"name":"CLARE HIGH SCHOOL","lat":-33.8226,"lng":138.5933,"wmo":"95667","height":"395.0","current":true,"state":"SA"},{"bom_id":35124,"name":"CLERMONT AIRPORT","lat":-22.7756,"lng":147.6217,"wmo":"94395","height":"270.3","current":true,"state":"QLD"},{"bom_id":18116,"name":"CLEVE AERODROME","lat":-33.7081,"lng":136.5026,"wmo":"94662","height":"175.0","current":true,"state":"SA"},{"bom_id":29141,"name":"CLONCURRY AIRPORT","lat":-20.6664,"lng":140.505,"wmo":"94335","height":"186.0","current":true,"state":"QLD"},{"bom_id":48237,"name":"COBAR AIRPORT AWS","lat":-31.5388,"lng":145.7964,"wmo":"94710","height":"218.0","current":true,"state":"NSW"},{"bom_id":48027,"name":"COBAR MO","lat":-31.484,"lng":145.8294,"wmo":"94711","height":"260.0","current":true,"state":"NSW"},{"bom_id":27054,"name":"COCONUT ISLAND","lat":-10.0511,"lng":143.0686,"wmo":"94182","height":"3.5","current":true,"state":"QLD"},{"bom_id":200284,"name":"COCOS ISLAND AIRPORT","lat":-12.1892,"lng":96.8344,"wmo":"96996","height":"3.0","current":true,"state":"WA"},{"bom_id":27073,"name":"COEN AIRPORT","lat":-13.7606,"lng":143.1183,"wmo":"94183","height":"159.3","current":true,"state":"QLD"},{"bom_id":59040,"name":"COFFS HARBOUR MO","lat":-30.3107,"lng":153.1187,"wmo":"94791","height":"5.0","current":true,"state":"NSW"},{"bom_id":90035,"name":"COLAC (MOUNT GELLIBRAND)","lat":-38.2333,"lng":143.7925,"wmo":"95845","height":"261.0","current":true,"state":"VIC"},{"bom_id":86383,"name":"COLDSTREAM","lat":-37.7239,"lng":145.4095,"wmo":"94864","height":"83.0","current":true,"state":"VIC"},{"bom_id":86320,"name":"COLDSTREAM COMPARISON","lat":-37.7239,"lng":145.4095,"wmo":"94869","height":"83.0","current":true,"state":"VIC"},{"bom_id":9994,"name":"COLLIE EAST","lat":-33.3608,"lng":116.1717,"wmo":"95621","height":"200.0","current":true,"state":"WA"},{"bom_id":84143,"name":"COMBIENBAR AWS","lat":-37.3417,"lng":149.0228,"wmo":"94914","height":"640.0","current":true,"state":"VIC"},{"bom_id":200872,"name":"COMORO AIRPORT","lat":-8.5494,"lng":125.5331,"wmo":"97390","height":"8.4","current":true,"state":"NT"},{"bom_id":50137,"name":"CONDOBOLIN AIRPORT AWS","lat":-33.0682,"lng":147.2133,"wmo":"95708","height":"192.6","current":true,"state":"NSW"},{"bom_id":16090,"name":"COOBER PEDY AIRPORT","lat":-29.0347,"lng":134.7222,"wmo":"95458","height":"225.0","current":true,"state":"SA"},{"bom_id":31209,"name":"COOKTOWN AIRPORT","lat":-15.4461,"lng":145.1861,"wmo":"95283","height":"4.8","current":true,"state":"QLD"},{"bom_id":40717,"name":"COOLANGATTA","lat":-28.1681,"lng":153.5053,"wmo":"94592","height":"4.0","current":true,"state":"QLD"},{"bom_id":70217,"name":"COOMA AIRPORT AWS","lat":-36.2939,"lng":148.9725,"wmo":"94921","height":"930.0","current":true,"state":"NSW"},{"bom_id":64017,"name":"COONABARABRAN AIRPORT AWS","lat":-31.3304,"lng":149.2699,"wmo":"95728","height":"645.0","current":true,"state":"NSW"},{"bom_id":51161,"name":"COONAMBLE AIRPORT AWS","lat":-30.9776,"lng":148.3798,"wmo":"95718","height":"181.3","current":true,"state":"NSW"},{"bom_id":26091,"name":"COONAWARRA","lat":-37.2906,"lng":140.8254,"wmo":"94817","height":"57.0","current":true,"state":"SA"},{"bom_id":61412,"name":"COORANBONG (LAKE MACQUARIE AWS)","lat":-33.0887,"lng":151.4636,"wmo":"95767","height":"6.0","current":true,"state":"NSW"},{"bom_id":18191,"name":"COULTA (COLES POINT)","lat":-34.3749,"lng":135.3741,"wmo":"94658","height":"28.0","current":true,"state":"SA"},{"bom_id":65111,"name":"COWRA AIRPORT AWS","lat":-33.8449,"lng":148.6497,"wmo":"95721","height":"296.5","current":true,"state":"NSW"},{"bom_id":200736,"name":"CREAL REEF","lat":-20.5303,"lng":150.3773,"wmo":"94371","height":"1.7","current":true,"state":"QLD"},{"bom_id":91306,"name":"CRESSY RESEARCH STATION","lat":-41.7256,"lng":147.0794,"wmo":"95969","height":"148.0","current":true,"state":"TAS"},{"bom_id":18217,"name":"CUMMINS AERO","lat":-34.2524,"lng":135.7135,"wmo":"95663","height":"60.1","current":true,"state":"SA"},{"bom_id":10286,"name":"CUNDERDIN AIRFIELD","lat":-31.6219,"lng":117.2217,"wmo":"95625","height":"216.7","current":true,"state":"WA"},{"bom_id":3080,"name":"CURTIN AERO","lat":-17.5736,"lng":123.8217,"wmo":"94204","height":"77.5","current":true,"state":"WA"},{"bom_id":41522,"name":"DALBY AIRPORT","lat":-27.1605,"lng":151.2634,"wmo":"94542","height":"343.9","current":true,"state":"QLD"},{"bom_id":8297,"name":"DALWALLINU","lat":-30.2761,"lng":116.6714,"wmo":"95629","height":"324.5","current":true,"state":"WA"},{"bom_id":14626,"name":"DALY WATERS AWS","lat":-16.2636,"lng":133.3782,"wmo":"94234","height":"209.8","current":true,"state":"NT"},{"bom_id":90194,"name":"DARTMOOR","lat":-37.9222,"lng":141.2614,"wmo":"95822","height":"51.0","current":true,"state":"VIC"},{"bom_id":14015,"name":"DARWIN AIRPORT","lat":-12.4239,"lng":130.8925,"wmo":"94120","height":"30.4","current":true,"state":"NT"},{"bom_id":14072,"name":"DARWIN NTC AWS","lat":-12.4719,"lng":130.8458,"wmo":"95122","height":"0.0","current":true,"state":"NT"},{"bom_id":300000,"name":"DAVIS","lat":-68.5744,"lng":77.9672,"wmo":"89571","height":"18.0","current":true,"state":"ANT"},{"bom_id":300055,"name":"DAVIS (WHOOP WHOOP)","lat":-68.4845,"lng":78.8169,"wmo":"89570","height":"545.0","current":true,"state":"ANT"},{"bom_id":14949,"name":"DELAMERE WEAPONS RANGE","lat":-15.7442,"lng":131.9182,"wmo":"94225","height":"221.0","current":true,"state":"NT"},{"bom_id":74258,"name":"DENILIQUIN AIRPORT AWS","lat":-35.5575,"lng":144.9458,"wmo":"95869","height":"94.0","current":true,"state":"NSW"},{"bom_id":3032,"name":"DERBY AERO","lat":-17.3706,"lng":123.6611,"wmo":"95205","height":"6.2","current":true,"state":"WA"},{"bom_id":91126,"name":"DEVONPORT AIRPORT","lat":-41.1701,"lng":146.4289,"wmo":"95960","height":"8.0","current":true,"state":"TAS"},{"bom_id":83055,"name":"DINNER PLAIN (MOUNT HOTHAM AIRPORT)","lat":-37.0491,"lng":147.3347,"wmo":"94905","height":"1295.4","current":true,"state":"VIC"},{"bom_id":40068,"name":"DOUBLE ISLAND POINT LIGHTHOUSE","lat":-25.9319,"lng":153.1906,"wmo":"94584","height":"95.6","current":true,"state":"QLD"},{"bom_id":14901,"name":"DOUGLAS RIVER","lat":-13.8345,"lng":131.1872,"wmo":"94128","height":"42.8","current":true,"state":"NT"},{"bom_id":65070,"name":"DUBBO AIRPORT AWS","lat":-32.2206,"lng":148.5753,"wmo":"95719","height":"284.0","current":true,"state":"NSW"},{"bom_id":14277,"name":"DUM IN MIRRIE AWS","lat":-12.635,"lng":130.3725,"wmo":"94116","height":"3.5","current":true,"state":"NT"},{"bom_id":9538,"name":"DWELLINGUP","lat":-32.7103,"lng":116.0594,"wmo":"94620","height":"267.0","current":true,"state":"WA"},{"bom_id":85072,"name":"EAST SALE AIRPORT","lat":-38.1156,"lng":147.1322,"wmo":"94907","height":"4.6","current":true,"state":"VIC"},{"bom_id":92045,"name":"EDDYSTONE POINT","lat":-40.9928,"lng":148.3467,"wmo":"94983","height":"19.7","current":true,"state":"TAS"},{"bom_id":79099,"name":"EDENHOPE AIRPORT","lat":-37.0222,"lng":141.2657,"wmo":"95832","height":"155.0","current":true,"state":"VIC"},{"bom_id":23083,"name":"EDINBURGH RAAF","lat":-34.7111,"lng":138.6222,"wmo":"95676","height":"16.5","current":true,"state":"SA"},{"bom_id":22046,"name":"EDITHBURGH","lat":-35.1121,"lng":137.7395,"wmo":"94809","height":"6.0","current":true,"state":"SA"},{"bom_id":88164,"name":"EILDON FIRE TOWER","lat":-37.2091,"lng":145.8423,"wmo":"94881","height":"637.0","current":true,"state":"VIC"},{"bom_id":35264,"name":"EMERALD AIRPORT","lat":-23.5694,"lng":148.1756,"wmo":"94363","height":"189.4","current":true,"state":"QLD"},{"bom_id":16097,"name":"ERNABELLA (PUKATJA)","lat":-26.2635,"lng":132.1771,"wmo":"94474","height":"703.2","current":true,"state":"SA"},{"bom_id":9789,"name":"ESPERANCE","lat":-33.83,"lng":121.8925,"wmo":"94638","height":"25.0","current":true,"state":"WA"},{"bom_id":9542,"name":"ESPERANCE AERO","lat":-33.6825,"lng":121.8275,"wmo":"95638","height":"142.0","current":true,"state":"WA"},{"bom_id":86038,"name":"ESSENDON AIRPORT","lat":-37.7276,"lng":144.9066,"wmo":"95866","height":"78.4","current":true,"state":"VIC"},{"bom_id":11003,"name":"EUCLA","lat":-31.6797,"lng":128.8792,"wmo":"94647","height":"93.1","current":true,"state":"WA"},{"bom_id":58212,"name":"EVANS HEAD RAAF BOMBING RANGE AWS","lat":-29.183,"lng":153.3964,"wmo":"94598","height":"62.5","current":true,"state":"NSW"},{"bom_id":83084,"name":"FALLS CREEK","lat":-36.8708,"lng":147.2755,"wmo":"94903","height":"1765.0","current":true,"state":"VIC"},{"bom_id":86376,"name":"FAWKNER BEACON","lat":-37.95,"lng":144.9258,"wmo":"95872","height":"17.0","current":true,"state":"VIC"},{"bom_id":86266,"name":"FERNY CREEK","lat":-37.8748,"lng":145.3496,"wmo":"94872","height":"512.9","current":true,"state":"VIC"},{"bom_id":92012,"name":"FINGAL (LEGGE STREET)","lat":-41.6428,"lng":147.9664,"wmo":"95974","height":"237.0","current":true,"state":"TAS"},{"bom_id":3093,"name":"FITZROY CROSSING AERO","lat":-18.1814,"lng":125.5619,"wmo":"94206","height":"114.5","current":true,"state":"WA"},{"bom_id":99005,"name":"FLINDERS ISLAND AIRPORT","lat":-40.0911,"lng":148.0024,"wmo":"94980","height":"9.0","current":true,"state":"TAS"},{"bom_id":200783,"name":"FLINDERS REEF","lat":-17.7195,"lng":148.4478,"wmo":"94290","height":"2.6","current":true,"state":"QLD"},{"bom_id":65103,"name":"FORBES AIRPORT AWS","lat":-33.3627,"lng":147.9205,"wmo":"94715","height":"230.4","current":true,"state":"NSW"},{"bom_id":11052,"name":"FORREST","lat":-30.8453,"lng":128.1092,"wmo":"95646","height":"159.0","current":true,"state":"WA"},{"bom_id":66022,"name":"FORT DENISON","lat":-33.8551,"lng":151.2254,"wmo":"94769","height":"2.0","current":true,"state":"NSW"},{"bom_id":46128,"name":"FOWLERS GAP AWS","lat":-31.0867,"lng":141.7017,"wmo":"94686","height":"181.0","current":true,"state":"NSW"},{"bom_id":86371,"name":"FRANKSTON AWS","lat":-38.1481,"lng":145.1156,"wmo":"94871","height":"6.0","current":true,"state":"VIC"},{"bom_id":200701,"name":"FREDERICK REEF","lat":-20.9375,"lng":154.4019,"wmo":"94393","height":"4.9","current":true,"state":"QLD"},{"bom_id":92114,"name":"FRIENDLY BEACHES","lat":-41.9953,"lng":148.2794,"wmo":"94987","height":"55.0","current":true,"state":"TAS"},{"bom_id":84016,"name":"GABO ISLAND LIGHTHOUSE","lat":-37.5679,"lng":149.9158,"wmo":"94933","height":"15.2","current":true,"state":"VIC"},{"bom_id":200831,"name":"GANNET CAY","lat":-21.9769,"lng":152.4707,"wmo":"94379","height":"2.3","current":true,"state":"QLD"},{"bom_id":9256,"name":"GARDEN ISLAND HSF","lat":-32.2433,"lng":115.6839,"wmo":"95607","height":"6.0","current":true,"state":"WA"},{"bom_id":39066,"name":"GAYNDAH AIRPORT","lat":-25.6167,"lng":151.6156,"wmo":"95543","height":"110.9","current":true,"state":"QLD"},{"bom_id":84142,"name":"GELANTIPY","lat":-37.22,"lng":148.2625,"wmo":"94913","height":"755.0","current":true,"state":"VIC"},{"bom_id":30124,"name":"GEORGETOWN AIRPORT","lat":-18.3039,"lng":143.5306,"wmo":"94274","height":"301.8","current":true,"state":"QLD"},{"bom_id":8315,"name":"GERALDTON AIRPORT","lat":-28.8047,"lng":114.6989,"wmo":"94403","height":"29.7","current":true,"state":"WA"},{"bom_id":8051,"name":"GERALDTON AIRPORT COMPARISON","lat":-28.7953,"lng":114.6975,"wmo":"95403","height":"33.0","current":true,"state":"WA"},{"bom_id":13017,"name":"GILES METEOROLOGICAL OFFICE","lat":-25.0341,"lng":128.301,"wmo":"94461","height":"598.0","current":true,"state":"WA"},{"bom_id":9178,"name":"GINGIN AERO","lat":-31.4628,"lng":115.8642,"wmo":"95612","height":"73.0","current":true,"state":"WA"},{"bom_id":39326,"name":"GLADSTONE AIRPORT","lat":-23.8697,"lng":151.2214,"wmo":"94381","height":"16.6","current":true,"state":"QLD"},{"bom_id":39123,"name":"GLADSTONE RADAR","lat":-23.8553,"lng":151.2628,"wmo":"94380","height":"74.5","current":true,"state":"QLD"},{"bom_id":56243,"name":"GLEN INNES AIRPORT AWS","lat":-29.678,"lng":151.694,"wmo":"94588","height":"1044.3","current":true,"state":"NSW"},{"bom_id":40764,"name":"GOLD COAST SEAWAY","lat":-27.939,"lng":153.4283,"wmo":"94580","height":"3.0","current":true,"state":"QLD"},{"bom_id":9204,"name":"GOOSEBERRY HILL","lat":-31.9414,"lng":116.0506,"wmo":"94615","height":"220.0","current":true,"state":"WA"},{"bom_id":61087,"name":"GOSFORD (NARARA RESEARCH STATION) AWS","lat":-33.3949,"lng":151.3289,"wmo":"94777","height":"20.0","current":true,"state":"NSW"},{"bom_id":70330,"name":"GOULBURN AIRPORT AWS","lat":-34.8085,"lng":149.7312,"wmo":"95716","height":"640.0","current":true,"state":"NSW"},{"bom_id":14508,"name":"GOVE AIRPORT","lat":-12.2741,"lng":136.8203,"wmo":"94150","height":"51.6","current":true,"state":"NT"},{"bom_id":58161,"name":"GRAFTON AIRPORT AWS","lat":-29.7583,"lng":153.0297,"wmo":"95570","height":"25.1","current":true,"state":"NSW"},{"bom_id":58077,"name":"GRAFTON RESEARCH STN","lat":-29.6224,"lng":152.9605,"wmo":"95571","height":"25.0","current":true,"state":"NSW"},{"bom_id":79103,"name":"GRAMPIANS (MOUNT WILLIAM)","lat":-37.295,"lng":142.6039,"wmo":"94833","height":"1150.0","current":true,"state":"VIC"},{"bom_id":69137,"name":"GREEN CAPE AWS","lat":-37.2622,"lng":150.0504,"wmo":"94934","height":"19.4","current":true,"state":"NSW"},{"bom_id":75041,"name":"GRIFFITH AIRPORT AWS","lat":-34.2487,"lng":146.0695,"wmo":"95704","height":"134.0","current":true,"state":"NSW"},{"bom_id":14518,"name":"GROOTE EYLANDT AIRPORT AWS","lat":-13.9747,"lng":136.4631,"wmo":"94153","height":"13.7","current":true,"state":"NT"},{"bom_id":94220,"name":"GROVE (RESEARCH STATION)","lat":-42.9858,"lng":147.0742,"wmo":"95977","height":"65.0","current":true,"state":"TAS"},{"bom_id":55202,"name":"GUNNEDAH AIRPORT AWS","lat":-30.9537,"lng":150.2494,"wmo":"95740","height":"262.6","current":true,"state":"NSW"},{"bom_id":40093,"name":"GYMPIE","lat":-26.1831,"lng":152.6414,"wmo":"94566","height":"64.5","current":true,"state":"QLD"},{"bom_id":2012,"name":"HALLS CREEK AIRPORT","lat":-18.2292,"lng":127.6636,"wmo":"94212","height":"422.0","current":true,"state":"WA"},{"bom_id":90173,"name":"HAMILTON AIRPORT","lat":-37.6486,"lng":142.0636,"wmo":"94829","height":"241.1","current":true,"state":"VIC"},{"bom_id":33106,"name":"HAMILTON ISLAND AIRPORT","lat":-20.3658,"lng":148.9536,"wmo":"94368","height":"58.7","current":true,"state":"QLD"},{"bom_id":94191,"name":"HARTZ MOUNTAIN (KEOGHS PIMPLE)","lat":-43.2006,"lng":146.7683,"wmo":"94977","height":"831.0","current":true,"state":"TAS"},{"bom_id":75019,"name":"HAY AIRPORT AWS","lat":-34.5412,"lng":144.8345,"wmo":"94702","height":"92.0","current":true,"state":"NSW"},{"bom_id":39122,"name":"HERON ISLAND RES STN","lat":-23.4422,"lng":151.9131,"wmo":"94386","height":"3.3","current":true,"state":"QLD"},{"bom_id":40405,"name":"HERVEY BAY AIRPORT","lat":-25.322,"lng":152.8817,"wmo":"95565","height":"13.0","current":true,"state":"QLD"},{"bom_id":9265,"name":"HILLARYS BOAT HARBOUR NTC AWS","lat":-31.8256,"lng":115.7386,"wmo":"95605","height":"0.0","current":true,"state":"WA"},{"bom_id":23894,"name":"HINDMARSH ISLAND AWS","lat":-35.5194,"lng":138.8177,"wmo":"94677","height":"11.0","current":true,"state":"SA"},{"bom_id":94029,"name":"HOBART (ELLERSLIE ROAD)","lat":-42.8897,"lng":147.3278,"wmo":"94970","height":"50.5","current":true,"state":"TAS"},{"bom_id":94008,"name":"HOBART AIRPORT","lat":-42.8339,"lng":147.5033,"wmo":"94975","height":"4.0","current":true,"state":"TAS"},{"bom_id":200838,"name":"HOGAN ISLAND","lat":-39.2225,"lng":146.9841,"wmo":"94949","height":"116.0","current":true,"state":"TAS"},{"bom_id":200732,"name":"HOLMES REEF","lat":-16.4683,"lng":147.8734,"wmo":"94289","height":"1.9","current":true,"state":"QLD"},{"bom_id":67117,"name":"HOLSWORTHY CONTROL RANGE","lat":-33.9795,"lng":150.9254,"wmo":"94762","height":"40.0","current":true,"state":"NSW"},{"bom_id":77010,"name":"HOPETOUN AIRPORT","lat":-35.7151,"lng":142.3569,"wmo":"94838","height":"77.3","current":true,"state":"VIC"},{"bom_id":9961,"name":"HOPETOUN NORTH","lat":-33.9306,"lng":120.1283,"wmo":"95635","height":"26.0","current":true,"state":"WA"},{"bom_id":27058,"name":"HORN ISLAND","lat":-10.5844,"lng":142.29,"wmo":"94174","height":"4.0","current":true,"state":"QLD"},{"bom_id":79100,"name":"HORSHAM AERODROME","lat":-36.6697,"lng":142.1731,"wmo":"95839","height":"133.8","current":true,"state":"VIC"},{"bom_id":67119,"name":"HORSLEY PARK EQUESTRIAN CENTRE AWS","lat":-33.8511,"lng":150.8567,"wmo":"94760","height":"100.0","current":true,"state":"NSW"},{"bom_id":30022,"name":"HUGHENDEN AIRPORT","lat":-20.8192,"lng":144.2333,"wmo":"94343","height":"316.4","current":true,"state":"QLD"},{"bom_id":82139,"name":"HUNTERS HILL","lat":-36.2136,"lng":147.5394,"wmo":"94878","height":"981.0","current":true,"state":"VIC"},{"bom_id":41097,"name":"INGLEWOOD FOREST","lat":-28.3429,"lng":150.9363,"wmo":"95573","height":"379.0","current":true,"state":"QLD"},{"bom_id":56018,"name":"INVERELL RESEARCH CENTRE","lat":-29.7752,"lng":151.0819,"wmo":"94541","height":"664.0","current":true,"state":"NSW"},{"bom_id":49000,"name":"IVANHOE AERODROME AWS","lat":-32.8831,"lng":144.3088,"wmo":"95697","height":"100.0","current":true,"state":"NSW"},{"bom_id":14198,"name":"JABIRU AIRPORT","lat":-12.6594,"lng":132.8939,"wmo":"94137","height":"26.5","current":true,"state":"NT"},{"bom_id":10905,"name":"JACUP","lat":-33.8878,"lng":119.1092,"wmo":"95636","height":"305.0","current":true,"state":"WA"},{"bom_id":9172,"name":"JANDAKOT AERO","lat":-32.1011,"lng":115.8794,"wmo":"94609","height":"30.0","current":true,"state":"WA"},{"bom_id":68151,"name":"JERVIS BAY (POINT PERPENDICULAR AWS)","lat":-35.0936,"lng":150.8049,"wmo":"95940","height":"85.0","current":true,"state":"NSW"},{"bom_id":15602,"name":"JERVOIS","lat":-22.9494,"lng":136.1442,"wmo":"94327","height":"328.0","current":true,"state":"NT"},{"bom_id":40651,"name":"JIMNA FORESTRY","lat":-26.6644,"lng":152.4606,"wmo":"94557","height":"523.0","current":true,"state":"QLD"},{"bom_id":29058,"name":"JULIA CREEK AIRPORT","lat":-20.6672,"lng":141.7214,"wmo":"94337","height":"122.5","current":true,"state":"QLD"},{"bom_id":22050,"name":"KADINA AWS","lat":-33.9703,"lng":137.6628,"wmo":"94685","height":"41.1","current":true,"state":"SA"},{"bom_id":12038,"name":"KALGOORLIE-BOULDER AIRPORT","lat":-30.7847,"lng":121.4533,"wmo":"94637","height":"365.3","current":true,"state":"WA"},{"bom_id":1019,"name":"KALUMBURU","lat":-14.2964,"lng":126.6453,"wmo":"94100","height":"23.0","current":true,"state":"WA"},{"bom_id":79097,"name":"KANAGULK","lat":-37.1169,"lng":141.8031,"wmo":"95827","height":"188.8","current":true,"state":"VIC"},{"bom_id":4083,"name":"KARRATHA AERO","lat":-20.7097,"lng":116.7742,"wmo":"95307","height":"5.3","current":true,"state":"WA"},{"bom_id":10916,"name":"KATANNING","lat":-33.6856,"lng":117.6064,"wmo":"94641","height":"320.0","current":true,"state":"WA"},{"bom_id":25557,"name":"KEITH (MUNKORA)","lat":-36.1058,"lng":140.3273,"wmo":"95815","height":"27.0","current":true,"state":"SA"},{"bom_id":59007,"name":"KEMPSEY AIRPORT AWS","lat":-31.0711,"lng":152.7717,"wmo":"94785","height":"13.0","current":true,"state":"NSW"},{"bom_id":72162,"name":"KHANCOBAN AWS","lat":-36.2304,"lng":148.1405,"wmo":"94919","height":"339.3","current":true,"state":"NSW"},{"bom_id":68242,"name":"KIAMA (BOMBO HEADLAND)","lat":-34.6533,"lng":150.8609,"wmo":"95749","height":"15.5","current":true,"state":"NSW"},{"bom_id":98017,"name":"KING ISLAND AIRPORT","lat":-39.8801,"lng":143.8829,"wmo":"94850","height":"37.0","current":true,"state":"TAS"},{"bom_id":40922,"name":"KINGAROY AIRPORT","lat":-26.5737,"lng":151.8398,"wmo":"94549","height":"433.7","current":true,"state":"QLD"},{"bom_id":22841,"name":"KINGSCOTE AERO","lat":-35.7114,"lng":137.5231,"wmo":"95807","height":"6.2","current":true,"state":"SA"},{"bom_id":29038,"name":"KOWANYAMA AIRPORT","lat":-15.4818,"lng":141.7483,"wmo":"94268","height":"9.6","current":true,"state":"QLD"},{"bom_id":23887,"name":"KUITPO FOREST RESERVE","lat":-35.1712,"lng":138.6783,"wmo":"94683","height":"365.0","current":true,"state":"SA"},{"bom_id":2056,"name":"KUNUNURRA AERO","lat":-15.7814,"lng":128.71,"wmo":"94216","height":"44.0","current":true,"state":"WA"},{"bom_id":66043,"name":"KURNELL AWS","lat":-34.0039,"lng":151.2111,"wmo":"95756","height":"4.0","current":true,"state":"NSW"},{"bom_id":80091,"name":"KYABRAM DPI","lat":-36.335,"lng":145.0638,"wmo":"95833","height":"105.0","current":true,"state":"VIC"},{"bom_id":39059,"name":"LADY ELLIOT ISLAND","lat":-24.1116,"lng":152.7161,"wmo":"94388","height":"3.6","current":true,"state":"QLD"},{"bom_id":14829,"name":"LAJAMANU","lat":-18.3325,"lng":130.6358,"wmo":"94231","height":"315.6","current":true,"state":"NT"},{"bom_id":10911,"name":"LAKE GRACE","lat":-33.1006,"lng":118.4647,"wmo":"95637","height":"286.0","current":true,"state":"WA"},{"bom_id":25562,"name":"LAMEROO (AUSTIN PLAINS)","lat":-35.3778,"lng":140.5378,"wmo":"94690","height":"110.1","current":true,"state":"SA"},{"bom_id":91237,"name":"LAUNCESTON (TI TREE BEND)","lat":-41.4194,"lng":147.1222,"wmo":"94969","height":"5.0","current":true,"state":"TAS"},{"bom_id":91311,"name":"LAUNCESTON AIRPORT","lat":-41.5492,"lng":147.2144,"wmo":"95966","height":"166.9","current":true,"state":"TAS"},{"bom_id":12305,"name":"LAVERTON AERO","lat":-28.6133,"lng":122.4236,"wmo":"94449","height":"464.3","current":true,"state":"WA"},{"bom_id":87031,"name":"LAVERTON RAAF","lat":-37.8565,"lng":144.7566,"wmo":"94865","height":"20.1","current":true,"state":"VIC"},{"bom_id":5007,"name":"LEARMONTH AIRPORT","lat":-22.2406,"lng":114.0967,"wmo":"94302","height":"5.0","current":true,"state":"WA"},{"bom_id":4095,"name":"LEGENDRE ISLAND","lat":-20.3583,"lng":116.8431,"wmo":"94307","height":"29.0","current":true,"state":"WA"},{"bom_id":17110,"name":"LEIGH CREEK AIRPORT","lat":-30.5963,"lng":138.4219,"wmo":"94674","height":"258.8","current":true,"state":"SA"},{"bom_id":12314,"name":"LEINSTER AERO","lat":-27.8386,"lng":120.7031,"wmo":"95448","height":"497.0","current":true,"state":"WA"},{"bom_id":12241,"name":"LEONORA AERO","lat":-28.8789,"lng":121.3186,"wmo":"94450","height":"370.0","current":true,"state":"WA"},{"bom_id":96033,"name":"LIAWENEE","lat":-41.8997,"lng":146.6694,"wmo":"95959","height":"1057.0","current":true,"state":"TAS"},{"bom_id":58214,"name":"LISMORE AIRPORT AWS","lat":-28.8305,"lng":153.2601,"wmo":"94572","height":"9.2","current":true,"state":"NSW"},{"bom_id":66051,"name":"LITTLE BAY (THE COAST GOLF CLUB)","lat":-33.9829,"lng":151.2502,"wmo":"94780","height":"22.0","current":true,"state":"NSW"},{"bom_id":35139,"name":"LOCHINGTON","lat":-23.9424,"lng":147.525,"wmo":"94399","height":"267.2","current":true,"state":"QLD"},{"bom_id":28008,"name":"LOCKHART RIVER AIRPORT","lat":-12.785,"lng":143.3047,"wmo":"94186","height":"18.5","current":true,"state":"QLD"},{"bom_id":79028,"name":"LONGERENONG","lat":-36.6722,"lng":142.2991,"wmo":"95835","height":"133.0","current":true,"state":"VIC"},{"bom_id":36031,"name":"LONGREACH AERO","lat":-23.4372,"lng":144.2769,"wmo":"94346","height":"192.2","current":true,"state":"QLD"},{"bom_id":200839,"name":"LORD HOWE ISLAND AERO","lat":-31.5421,"lng":159.0786,"wmo":"94995","height":"5.0","current":true,"state":"NSW"},{"bom_id":91293,"name":"LOW HEAD","lat":-41.0547,"lng":146.7874,"wmo":"95964","height":"3.0","current":true,"state":"TAS"},{"bom_id":31037,"name":"LOW ISLES LIGHTHOUSE","lat":-16.3842,"lng":145.5592,"wmo":"94285","height":"2.9","current":true,"state":"QLD"},{"bom_id":97080,"name":"LOW ROCKY POINT","lat":-42.9831,"lng":145.5025,"wmo":"95961","height":"34.0","current":true,"state":"TAS"},{"bom_id":24024,"name":"LOXTON RESEARCH CENTRE","lat":-34.439,"lng":140.5978,"wmo":"94682","height":"30.1","current":true,"state":"SA"},{"bom_id":66023,"name":"LUCAS HEIGHTS AWS","lat":-34.0514,"lng":150.98,"wmo":"95757","height":"140.0","current":true,"state":"NSW"},{"bom_id":32141,"name":"LUCINDA POINT","lat":-18.5203,"lng":146.3861,"wmo":"94295","height":"10.0","current":true,"state":"QLD"},{"bom_id":91259,"name":"LUNCHEON HILL (FORESTRY)","lat":-41.1492,"lng":145.1517,"wmo":"95956","height":"344.0","current":true,"state":"TAS"},{"bom_id":94041,"name":"MAATSUYKER ISLAND LIGHTHOUSE","lat":-43.6578,"lng":146.2711,"wmo":"94962","height":"146.5","current":true,"state":"TAS"},{"bom_id":33045,"name":"MACKAY AERO","lat":-21.1706,"lng":149.1794,"wmo":"95367","height":"4.7","current":true,"state":"QLD"},{"bom_id":33119,"name":"MACKAY M.O","lat":-21.1172,"lng":149.2169,"wmo":"94367","height":"30.3","current":true,"state":"QLD"},{"bom_id":300004,"name":"MACQUARIE ISLAND","lat":-54.4994,"lng":158.9369,"wmo":"94998","height":"6.0","current":true,"state":"ANT"},{"bom_id":84084,"name":"MALLACOOTA","lat":-37.5976,"lng":149.7289,"wmo":"94935","height":"22.0","current":true,"state":"VIC"},{"bom_id":4019,"name":"MANDORA","lat":-19.7419,"lng":120.8436,"wmo":"94200","height":"7.5","current":true,"state":"WA"},{"bom_id":9977,"name":"MANDURAH","lat":-32.5219,"lng":115.7119,"wmo":"94605","height":"3.0","current":true,"state":"WA"},{"bom_id":88109,"name":"MANGALORE AIRPORT","lat":-36.8886,"lng":145.1859,"wmo":"94874","height":"140.8","current":true,"state":"VIC"},{"bom_id":61375,"name":"MANGROVE MOUNTAIN AWS","lat":-33.2894,"lng":151.2107,"wmo":"95774","height":"305.0","current":true,"state":"NSW"},{"bom_id":14405,"name":"MANINGRIDA AERO","lat":-12.0569,"lng":134.2339,"wmo":"95142","height":"28.1","current":true,"state":"NT"},{"bom_id":9573,"name":"MANJIMUP","lat":-34.2508,"lng":116.145,"wmo":"94617","height":"286.7","current":true,"state":"WA"},{"bom_id":66197,"name":"MANLY (NORTH HEAD)","lat":-33.8152,"lng":151.2986,"wmo":"95768","height":"90.0","current":true,"state":"NSW"},{"bom_id":4106,"name":"MARBLE BAR","lat":-21.1756,"lng":119.7497,"wmo":"95317","height":"182.3","current":true,"state":"WA"},{"bom_id":5008,"name":"MARDIE","lat":-21.1906,"lng":115.9797,"wmo":"94306","height":"11.0","current":true,"state":"WA"},{"bom_id":31210,"name":"MAREEBA AIRPORT","lat":-17.0672,"lng":145.4283,"wmo":"95286","height":"471.9","current":true,"state":"QLD"},{"bom_id":92124,"name":"MARIA ISLAND (POINT LESUEUR)","lat":-42.6621,"lng":148.0179,"wmo":"95988","height":"28.0","current":true,"state":"TAS"},{"bom_id":200704,"name":"MARION REEF","lat":-19.0964,"lng":152.3892,"wmo":"94298","height":"2.0","current":true,"state":"QLD"},{"bom_id":17126,"name":"MARREE AERO","lat":-29.6587,"lng":138.0684,"wmo":"95480","height":"50.0","current":true,"state":"SA"},{"bom_id":40126,"name":"MARYBOROUGH","lat":-25.5161,"lng":152.7156,"wmo":"94567","height":"10.3","current":true,"state":"QLD"},{"bom_id":300001,"name":"MAWSON","lat":-67.6017,"lng":62.8753,"wmo":"89564","height":"9.9","current":true,"state":"ANT"},{"bom_id":14704,"name":"MCARTHUR RIVER MINE","lat":-16.4423,"lng":136.076,"wmo":"94239","height":"40.0","current":true,"state":"NT"},{"bom_id":14274,"name":"MCCLUER ISLAND","lat":-11.0468,"lng":132.9791,"wmo":"94135","height":"1.4","current":true,"state":"NT"},{"bom_id":7045,"name":"MEEKATHARRA AIRPORT","lat":-26.6136,"lng":118.5372,"wmo":"94430","height":"517.0","current":true,"state":"WA"},{"bom_id":86282,"name":"MELBOURNE AIRPORT","lat":-37.6655,"lng":144.8321,"wmo":"94866","height":"113.4","current":true,"state":"VIC"},{"bom_id":86071,"name":"MELBOURNE REGIONAL OFFICE","lat":-37.8075,"lng":144.97,"wmo":"94868","height":"31.2","current":true,"state":"VIC"},{"bom_id":69147,"name":"MERIMBULA AIRPORT AWS","lat":-36.9077,"lng":149.8989,"wmo":"95929","height":"1.5","current":true,"state":"NSW"},{"bom_id":61287,"name":"MERRIWA (ROSCOMMON)","lat":-32.1852,"lng":150.1737,"wmo":"95754","height":"375.0","current":true,"state":"NSW"},{"bom_id":200001,"name":"MIDDLE PERCY ISLAND","lat":-21.6628,"lng":150.2711,"wmo":"94372","height":"208.7","current":true,"state":"QLD"},{"bom_id":14041,"name":"MIDDLE POINT AWS","lat":-12.605,"lng":131.2988,"wmo":"95121","height":"14.1","current":true,"state":"NT"},{"bom_id":76031,"name":"MILDURA AIRPORT","lat":-34.2358,"lng":142.0867,"wmo":"94693","height":"50.0","current":true,"state":"VIC"},{"bom_id":42112,"name":"MILES CONSTANCE STREET","lat":-26.6569,"lng":150.1819,"wmo":"95529","height":"304.8","current":true,"state":"QLD"},{"bom_id":14404,"name":"MILINGIMBI AWS","lat":-12.0931,"lng":134.8919,"wmo":"94140","height":"15.0","current":true,"state":"NT"},{"bom_id":22031,"name":"MINLATON AERO","lat":-34.748,"lng":137.5276,"wmo":"95659","height":"32.0","current":true,"state":"SA"},{"bom_id":18195,"name":"MINNIPA PIRSA","lat":-32.8427,"lng":135.1515,"wmo":"95662","height":"165.0","current":true,"state":"SA"},{"bom_id":69017,"name":"MONTAGUE ISLAND LIGHTHOUSE","lat":-36.2519,"lng":150.2275,"wmo":"94939","height":"52.0","current":true,"state":"NSW"},{"bom_id":17123,"name":"MOOMBA AIRPORT","lat":-28.0997,"lng":140.1956,"wmo":"95481","height":"37.8","current":true,"state":"SA"},{"bom_id":86077,"name":"MOORABBIN AIRPORT","lat":-37.98,"lng":145.0964,"wmo":"94870","height":"12.1","current":true,"state":"VIC"},{"bom_id":8296,"name":"MORAWA AIRPORT","lat":-29.2039,"lng":116.0247,"wmo":"94417","height":"271.4","current":true,"state":"WA"},{"bom_id":53115,"name":"MOREE AERO","lat":-29.4898,"lng":149.8471,"wmo":"95527","height":"213.0","current":true,"state":"NSW"},{"bom_id":29039,"name":"MORNINGTON ISLAND","lat":-16.664,"lng":139.1837,"wmo":"94256","height":"8.5","current":true,"state":"QLD"},{"bom_id":90176,"name":"MORTLAKE RACECOURSE","lat":-38.0737,"lng":142.7744,"wmo":"94840","height":"130.0","current":true,"state":"VIC"},{"bom_id":69148,"name":"MORUYA AIRPORT AWS","lat":-35.9004,"lng":150.1437,"wmo":"95937","height":"4.0","current":true,"state":"NSW"},{"bom_id":85280,"name":"MORWELL (LATROBE VALLEY AIRPORT)","lat":-38.2094,"lng":146.4747,"wmo":"94891","height":"55.7","current":true,"state":"VIC"},{"bom_id":68239,"name":"MOSS VALE AWS","lat":-34.5253,"lng":150.4217,"wmo":"94746","height":"678.4","current":true,"state":"NSW"},{"bom_id":85291,"name":"MOUNT BAW BAW","lat":-37.8383,"lng":146.2747,"wmo":"95901","height":"1561.0","current":true,"state":"VIC"},{"bom_id":63292,"name":"MOUNT BOYCE AWS","lat":-33.6185,"lng":150.2741,"wmo":"94743","height":"1080.0","current":true,"state":"NSW"},{"bom_id":83024,"name":"MOUNT BULLER","lat":-37.145,"lng":146.4394,"wmo":"94894","height":"1707.0","current":true,"state":"VIC"},{"bom_id":23878,"name":"MOUNT CRAWFORD (MT CRAWFORD AWS)","lat":-34.7253,"lng":138.9273,"wmo":"94678","height":"525.0","current":true,"state":"SA"},{"bom_id":26021,"name":"MOUNT GAMBIER AERO","lat":-37.7473,"lng":140.7739,"wmo":"94821","height":"63.0","current":true,"state":"SA"},{"bom_id":70349,"name":"MOUNT GININI AWS","lat":-35.5293,"lng":148.7721,"wmo":"95925","height":"1760.0","current":true,"state":"NSW"},{"bom_id":83085,"name":"MOUNT HOTHAM","lat":-36.9767,"lng":147.1342,"wmo":"94906","height":"1849.0","current":true,"state":"VIC"},{"bom_id":29127,"name":"MOUNT ISA AERO","lat":-20.6778,"lng":139.4875,"wmo":"94332","height":"340.3","current":true,"state":"QLD"},{"bom_id":23842,"name":"MOUNT LOFTY","lat":-34.9784,"lng":138.7088,"wmo":"95678","height":"685.0","current":true,"state":"SA"},{"bom_id":7600,"name":"MOUNT MAGNET AERO","lat":-28.1156,"lng":117.8425,"wmo":"94429","height":"407.0","current":true,"state":"WA"},{"bom_id":85296,"name":"MOUNT MOORNAPA","lat":-37.7481,"lng":147.1428,"wmo":"95913","height":"480.0","current":true,"state":"VIC"},{"bom_id":84144,"name":"MOUNT NOWA NOWA","lat":-37.6924,"lng":148.0908,"wmo":"94930","height":"350.0","current":true,"state":"VIC"},{"bom_id":97085,"name":"MOUNT READ","lat":-41.8444,"lng":145.5417,"wmo":"95952","height":"1119.5","current":true,"state":"TAS"},{"bom_id":94087,"name":"MOUNT WELLINGTON","lat":-42.8967,"lng":147.235,"wmo":"95979","height":"1260.5","current":true,"state":"TAS"},{"bom_id":62101,"name":"MUDGEE AIRPORT AWS","lat":-32.5628,"lng":149.6149,"wmo":"94727","height":"471.0","current":true,"state":"NSW"},{"bom_id":12044,"name":"MUNGLINUP WEST","lat":-33.5547,"lng":120.6997,"wmo":"95644","height":"220.0","current":true,"state":"WA"},{"bom_id":24584,"name":"MURRAY BRIDGE (PALLAMANA AERODROME)","lat":-35.065,"lng":139.2273,"wmo":"95818","height":"45.0","current":true,"state":"SA"},{"bom_id":61392,"name":"MURRURUNDI GAP AWS","lat":-31.7416,"lng":150.7937,"wmo":"95747","height":"729.4","current":true,"state":"NSW"},{"bom_id":40988,"name":"NAMBOUR DPI - HILLSIDE","lat":-26.6442,"lng":152.9383,"wmo":"95572","height":"53.2","current":true,"state":"QLD"},{"bom_id":26099,"name":"NARACOORTE AERODROME","lat":-36.9813,"lng":140.727,"wmo":"94820","height":"49.7","current":true,"state":"SA"},{"bom_id":54038,"name":"NARRABRI AIRPORT AWS","lat":-30.3154,"lng":149.8302,"wmo":"95734","height":"229.0","current":true,"state":"NSW"},{"bom_id":74148,"name":"NARRANDERA AIRPORT","lat":-34.705,"lng":146.514,"wmo":"95706","height":"145.0","current":true,"state":"NSW"},{"bom_id":18115,"name":"NEPTUNE ISLAND","lat":-35.3365,"lng":136.1174,"wmo":"94804","height":"32.0","current":true,"state":"SA"},{"bom_id":61055,"name":"NEWCASTLE NOBBYS SIGNAL STATION AWS","lat":-32.9184,"lng":151.7985,"wmo":"94774","height":"33.0","current":true,"state":"NSW"},{"bom_id":10692,"name":"NEWDEGATE RESEARCH STATION","lat":-33.1131,"lng":118.84,"wmo":"94628","height":"320.0","current":true,"state":"WA"},{"bom_id":7176,"name":"NEWMAN AERO","lat":-23.4169,"lng":119.7989,"wmo":"94317","height":"524.0","current":true,"state":"WA"},{"bom_id":14517,"name":"NGAYAWILI","lat":-11.9971,"lng":135.5726,"wmo":"95146","height":"8.1","current":true,"state":"NT"},{"bom_id":78015,"name":"NHILL AERODROME","lat":-36.3092,"lng":141.6486,"wmo":"94827","height":"138.9","current":true,"state":"VIC"},{"bom_id":23885,"name":"NOARLUNGA","lat":-35.1586,"lng":138.5057,"wmo":"94808","height":"55.0","current":true,"state":"SA"},{"bom_id":61366,"name":"NORAH HEAD AWS","lat":-33.2815,"lng":151.5766,"wmo":"95770","height":"18.8","current":true,"state":"NSW"},{"bom_id":200288,"name":"NORFOLK ISLAND AERO","lat":-29.0389,"lng":167.9408,"wmo":"94996","height":"111.7","current":true,"state":"NSW"},{"bom_id":29063,"name":"NORMANTON AIRPORT","lat":-17.6872,"lng":141.0733,"wmo":"94266","height":"18.4","current":true,"state":"QLD"},{"bom_id":12009,"name":"NORSEMAN AERO","lat":-32.2147,"lng":121.7547,"wmo":"95642","height":"262.5","current":true,"state":"WA"},{"bom_id":200782,"name":"NORTH EAST ISLAND","lat":-13.6449,"lng":136.9445,"wmo":"94151","height":"17.4","current":true,"state":"NT"},{"bom_id":8290,"name":"NORTH ISLAND","lat":-28.3008,"lng":113.5936,"wmo":"94405","height":"2.2","current":true,"state":"WA"},{"bom_id":18192,"name":"NORTH SHIELDS (PORT LINCOLN AWS)","lat":-34.5993,"lng":135.8784,"wmo":"95661","height":"8.5","current":true,"state":"SA"},{"bom_id":9998,"name":"NORTH WALPOLE","lat":-34.9469,"lng":116.7222,"wmo":"95647","height":"73.0","current":true,"state":"WA"},{"bom_id":200212,"name":"NORTHERN ENDEAVOUR","lat":-10.6134,"lng":125.9843,"wmo":"95100","height":"..","current":true,"state":"NT"},{"bom_id":68072,"name":"NOWRA RAN AIR STATION AWS","lat":-34.9469,"lng":150.5353,"wmo":"94750","height":"109.0","current":true,"state":"NSW"},{"bom_id":18106,"name":"NULLARBOR","lat":-31.4492,"lng":130.8976,"wmo":"94651","height":"64.0","current":true,"state":"SA"},{"bom_id":62100,"name":"NULLO MOUNTAIN AWS","lat":-32.7244,"lng":150.229,"wmo":"94754","height":"1130.0","current":true,"state":"NSW"},{"bom_id":23373,"name":"NURIOOTPA VITICULTURAL","lat":-34.4761,"lng":139.0056,"wmo":"94681","height":"275.0","current":true,"state":"SA"},{"bom_id":41359,"name":"OAKEY AERO","lat":-27.4034,"lng":151.7413,"wmo":"94552","height":"405.7","current":true,"state":"QLD"},{"bom_id":83090,"name":"OMEO","lat":-37.1017,"lng":147.6008,"wmo":"94908","height":"689.8","current":true,"state":"VIC"},{"bom_id":5017,"name":"ONSLOW AIRPORT","lat":-21.6689,"lng":115.1092,"wmo":"95305","height":"10.5","current":true,"state":"WA"},{"bom_id":17043,"name":"OODNADATTA AIRPORT","lat":-27.5553,"lng":135.4456,"wmo":"94476","height":"116.5","current":true,"state":"SA"},{"bom_id":63303,"name":"ORANGE AIRPORT AWS","lat":-33.3813,"lng":149.127,"wmo":"95726","height":"947.4","current":true,"state":"NSW"},{"bom_id":84145,"name":"ORBOST","lat":-37.6922,"lng":148.4667,"wmo":"95918","height":"62.7","current":true,"state":"VIC"},{"bom_id":95048,"name":"OUSE FIRE STATION","lat":-42.4842,"lng":146.7106,"wmo":"94957","height":"90.0","current":true,"state":"TAS"},{"bom_id":26100,"name":"PADTHAWAY SOUTH","lat":-36.6539,"lng":140.5212,"wmo":"95823","height":"37.0","current":true,"state":"SA"},{"bom_id":28004,"name":"PALMERVILLE","lat":-16.0008,"lng":144.0758,"wmo":"94276","height":"203.8","current":true,"state":"QLD"},{"bom_id":7185,"name":"PARABURDOO AERO","lat":-23.1725,"lng":117.7494,"wmo":"94316","height":"423.7","current":true,"state":"WA"},{"bom_id":23013,"name":"PARAFIELD AIRPORT","lat":-34.7977,"lng":138.6281,"wmo":"95677","height":"9.5","current":true,"state":"SA"},{"bom_id":23875,"name":"PARAWA (SECOND VALLEY FOREST AWS)","lat":-35.5695,"lng":138.2864,"wmo":"94811","height":"341.0","current":true,"state":"SA"},{"bom_id":65068,"name":"PARKES AIRPORT AWS","lat":-33.1281,"lng":148.2428,"wmo":"95717","height":"323.3","current":true,"state":"NSW"},{"bom_id":22843,"name":"PARNDANA CFS AWS","lat":-35.7917,"lng":137.2487,"wmo":"94807","height":"165.0","current":true,"state":"SA"},{"bom_id":61250,"name":"PATERSON (TOCAL AWS)","lat":-32.6296,"lng":151.5919,"wmo":"94775","height":"30.0","current":true,"state":"NSW"},{"bom_id":9053,"name":"PEARCE RAAF","lat":-31.6669,"lng":116.0189,"wmo":"94612","height":"40.0","current":true,"state":"WA"},{"bom_id":67113,"name":"PENRITH LAKES AWS","lat":-33.7195,"lng":150.6783,"wmo":"94763","height":"24.7","current":true,"state":"NSW"},{"bom_id":71075,"name":"PERISHER VALLEY AWS","lat":-36.4069,"lng":148.4055,"wmo":"94915","height":"1738.0","current":true,"state":"NSW"},{"bom_id":9021,"name":"PERTH AIRPORT","lat":-31.9275,"lng":115.9764,"wmo":"94610","height":"15.4","current":true,"state":"WA"},{"bom_id":9225,"name":"PERTH METRO","lat":-31.9192,"lng":115.8728,"wmo":"94608","height":"24.9","current":true,"state":"WA"},{"bom_id":14142,"name":"PIRLANGIMPI","lat":-11.4022,"lng":130.4217,"wmo":"94119","height":"18.3","current":true,"state":"NT"},{"bom_id":200731,"name":"POINT FAWCETT","lat":-11.7628,"lng":130.03,"wmo":"94122","height":"6.5","current":true,"state":"NT"},{"bom_id":14254,"name":"POINT STUART AWS","lat":-12.2397,"lng":131.8791,"wmo":"94127","height":"1.0","current":true,"state":"NT"},{"bom_id":87166,"name":"POINT WILSON","lat":-38.0958,"lng":144.5361,"wmo":"94847","height":"18.0","current":true,"state":"VIC"},{"bom_id":18201,"name":"PORT AUGUSTA AERO","lat":-32.5089,"lng":137.714,"wmo":"95666","height":"14.0","current":true,"state":"SA"},{"bom_id":90175,"name":"PORT FAIRY AWS","lat":-38.3906,"lng":142.2347,"wmo":"94830","height":"10.0","current":true,"state":"VIC"},{"bom_id":4032,"name":"PORT HEDLAND AIRPORT","lat":-20.3725,"lng":118.6317,"wmo":"94312","height":"6.4","current":true,"state":"WA"},{"bom_id":14948,"name":"PORT KEATS AERO","lat":-14.2495,"lng":129.5282,"wmo":"95111","height":"28.0","current":true,"state":"NT"},{"bom_id":68253,"name":"PORT KEMBLA NTC AWS","lat":-34.4734,"lng":150.9118,"wmo":"95745","height":"0.0","current":true,"state":"NSW"},{"bom_id":60139,"name":"PORT MACQUARIE AIRPORT AWS","lat":-31.4336,"lng":152.8655,"wmo":"94786","height":"4.2","current":true,"state":"NSW"},{"bom_id":90171,"name":"PORTLAND (CASHMORE AIRPORT)","lat":-38.3148,"lng":141.4705,"wmo":"94828","height":"80.9","current":true,"state":"VIC"},{"bom_id":90192,"name":"PORTLAND NTC AWS","lat":-38.3439,"lng":141.6136,"wmo":"95826","height":"0.0","current":true,"state":"VIC"},{"bom_id":85099,"name":"POUND CREEK","lat":-38.6297,"lng":145.8107,"wmo":"94886","height":"3.0","current":true,"state":"VIC"},{"bom_id":33247,"name":"PROSERPINE AIRPORT","lat":-20.4925,"lng":148.555,"wmo":"94365","height":"19.7","current":true,"state":"QLD"},{"bom_id":79101,"name":"PYRENEES (BEN NEVIS)","lat":-37.2281,"lng":143.2006,"wmo":"94835","height":"875.0","current":true,"state":"VIC"},{"bom_id":15666,"name":"RABBIT FLAT","lat":-20.1824,"lng":130.0148,"wmo":"95322","height":"340.0","current":true,"state":"NT"},{"bom_id":11053,"name":"RED ROCKS POINT","lat":-32.2028,"lng":127.5297,"wmo":"94644","height":"3.1","current":true,"state":"WA"},{"bom_id":40958,"name":"REDCLIFFE","lat":-27.2169,"lng":153.0922,"wmo":"95591","height":"12.6","current":true,"state":"QLD"},{"bom_id":88051,"name":"REDESDALE","lat":-37.0194,"lng":144.5203,"wmo":"94859","height":"290.0","current":true,"state":"VIC"},{"bom_id":24048,"name":"RENMARK AERO","lat":-34.1983,"lng":140.6766,"wmo":"95687","height":"31.5","current":true,"state":"SA"},{"bom_id":86373,"name":"RHYLL","lat":-38.4612,"lng":145.3101,"wmo":"94892","height":"13.4","current":true,"state":"VIC"},{"bom_id":30161,"name":"RICHMOND AIRPORT","lat":-20.7017,"lng":143.1167,"wmo":"94341","height":"206.3","current":true,"state":"QLD"},{"bom_id":67105,"name":"RICHMOND RAAF","lat":-33.6004,"lng":150.7761,"wmo":"95753","height":"19.0","current":true,"state":"NSW"},{"bom_id":26105,"name":"ROBE AIRFIELD","lat":-37.1776,"lng":139.8054,"wmo":"95816","height":"3.0","current":true,"state":"SA"},{"bom_id":39083,"name":"ROCKHAMPTON AERO","lat":-23.3753,"lng":150.4775,"wmo":"94374","height":"10.4","current":true,"state":"QLD"},{"bom_id":9964,"name":"ROCKY GULLY","lat":-34.5714,"lng":117.0106,"wmo":"94631","height":"250.0","current":true,"state":"WA"},{"bom_id":4090,"name":"ROEBOURNE AERO","lat":-20.7594,"lng":117.1583,"wmo":"94308","height":"10.7","current":true,"state":"WA"},{"bom_id":35129,"name":"ROLLESTON AIRPORT","lat":-24.4617,"lng":148.6264,"wmo":"94396","height":"219.5","current":true,"state":"QLD"},{"bom_id":43091,"name":"ROMA AIRPORT","lat":-26.5474,"lng":148.7716,"wmo":"94515","height":"307.4","current":true,"state":"QLD"},{"bom_id":23122,"name":"ROSEWORTHY AWS","lat":-34.5106,"lng":138.6763,"wmo":"95671","height":"65.0","current":true,"state":"SA"},{"bom_id":33208,"name":"ROSSLYN BAY NTC AWS","lat":-23.161,"lng":150.7901,"wmo":"95298","height":"0.0","current":true,"state":"QLD"},{"bom_id":9193,"name":"ROTTNEST ISLAND","lat":-32.0069,"lng":115.5022,"wmo":"94602","height":"43.1","current":true,"state":"WA"},{"bom_id":200713,"name":"ROWLEY SHOALS","lat":-17.5217,"lng":118.9531,"wmo":"94207","height":"0.0","current":true,"state":"WA"},{"bom_id":16096,"name":"ROXBY DOWNS (OLYMPIC DAM AERODROME)","lat":-30.4829,"lng":136.8772,"wmo":"95658","height":"98.5","current":true,"state":"SA"},{"bom_id":39322,"name":"RUNDLE ISLAND","lat":-23.5293,"lng":151.2763,"wmo":"94378","height":"19.8","current":true,"state":"QLD"},{"bom_id":82039,"name":"RUTHERGLEN RESEARCH","lat":-36.1047,"lng":146.5094,"wmo":"95837","height":"175.0","current":true,"state":"VIC"},{"bom_id":12071,"name":"SALMON GUMS RES.STN.","lat":-32.9869,"lng":121.6239,"wmo":"95639","height":"249.0","current":true,"state":"WA"},{"bom_id":33308,"name":"SAMUEL HILL AERO","lat":-22.7433,"lng":150.6578,"wmo":"94370","height":"31.0","current":true,"state":"QLD"},{"bom_id":27075,"name":"SCHERGER RAAF","lat":-12.6167,"lng":142.0869,"wmo":"94171","height":"39.3","current":true,"state":"QLD"},{"bom_id":61363,"name":"SCONE AIRPORT AWS","lat":-32.0335,"lng":150.8264,"wmo":"95758","height":"221.4","current":true,"state":"NSW"},{"bom_id":86104,"name":"SCORESBY RESEARCH INSTITUTE","lat":-37.871,"lng":145.2561,"wmo":"95867","height":"80.0","current":true,"state":"VIC"},{"bom_id":97083,"name":"SCOTTS PEAK DAM","lat":-43.0425,"lng":146.2722,"wmo":"95958","height":"408.0","current":true,"state":"TAS"},{"bom_id":91219,"name":"SCOTTSDALE (WEST MINSTONE ROAD)","lat":-41.1708,"lng":147.4883,"wmo":"94972","height":"197.5","current":true,"state":"TAS"},{"bom_id":9968,"name":"SHANNON","lat":-34.5683,"lng":116.3367,"wmo":"95617","height":"210.0","current":true,"state":"WA"},{"bom_id":6105,"name":"SHARK BAY AIRPORT","lat":-25.8925,"lng":113.5772,"wmo":"95402","height":"33.8","current":true,"state":"WA"},{"bom_id":91291,"name":"SHEFFIELD SCHOOL FARM","lat":-41.3886,"lng":146.3219,"wmo":"94955","height":"294.2","current":true,"state":"TAS"},{"bom_id":87168,"name":"SHEOAKS","lat":-37.9075,"lng":144.1303,"wmo":"94863","height":"236.7","current":true,"state":"VIC"},{"bom_id":81125,"name":"SHEPPARTON AIRPORT","lat":-36.4289,"lng":145.3947,"wmo":"94875","height":"113.9","current":true,"state":"VIC"},{"bom_id":91292,"name":"SMITHTON AERODROME","lat":-40.8347,"lng":145.0847,"wmo":"94953","height":"7.5","current":true,"state":"TAS"},{"bom_id":21133,"name":"SNOWTOWN (RAYVILLE PARK)","lat":-33.7676,"lng":138.2182,"wmo":"95670","height":"109.1","current":true,"state":"SA"},{"bom_id":86344,"name":"SOUTH CHANNEL ISLAND","lat":-38.3065,"lng":144.8016,"wmo":"94853","height":"9.0","current":true,"state":"VIC"},{"bom_id":32037,"name":"SOUTH JOHNSTONE EXP STN","lat":-17.6053,"lng":145.9972,"wmo":"95292","height":"18.3","current":true,"state":"QLD"},{"bom_id":12320,"name":"SOUTHERN CROSS AIRFIELD","lat":-31.2353,"lng":119.3564,"wmo":"95634","height":"347.4","current":true,"state":"WA"},{"bom_id":92133,"name":"SPRING BAY NTC AWS","lat":-42.5464,"lng":147.9308,"wmo":"95987","height":"0.0","current":true,"state":"TAS"},{"bom_id":43109,"name":"ST GEORGE AIRPORT","lat":-28.0489,"lng":148.5942,"wmo":"94517","height":"198.5","current":true,"state":"QLD"},{"bom_id":92120,"name":"ST HELENS AERODROME","lat":-41.3381,"lng":148.2792,"wmo":"95981","height":"48.0","current":true,"state":"TAS"},{"bom_id":33210,"name":"ST LAWRENCE","lat":-22.3472,"lng":149.5242,"wmo":"95369","height":"9.2","current":true,"state":"QLD"},{"bom_id":79105,"name":"STAWELL AERODROME","lat":-37.072,"lng":142.7402,"wmo":"94836","height":"235.4","current":true,"state":"VIC"},{"bom_id":22049,"name":"STENHOUSE BAY","lat":-35.2795,"lng":136.9392,"wmo":"95806","height":"42.0","current":true,"state":"SA"},{"bom_id":97072,"name":"STRAHAN AERODROME","lat":-42.155,"lng":145.2908,"wmo":"94956","height":"21.0","current":true,"state":"TAS"},{"bom_id":24580,"name":"STRATHALBYN RACECOURSE","lat":-35.2836,"lng":138.8934,"wmo":"94814","height":"58.0","current":true,"state":"SA"},{"bom_id":40861,"name":"SUNSHINE COAST AIRPORT","lat":-26.6006,"lng":153.0903,"wmo":"94569","height":"3.3","current":true,"state":"QLD"},{"bom_id":77094,"name":"SWAN HILL AERODROME","lat":-35.3766,"lng":143.5416,"wmo":"94843","height":"71.0","current":true,"state":"VIC"},{"bom_id":92123,"name":"SWAN ISLAND","lat":-40.7292,"lng":148.125,"wmo":"95985","height":"15.0","current":true,"state":"TAS"},{"bom_id":9215,"name":"SWANBOURNE","lat":-31.9558,"lng":115.7619,"wmo":"94614","height":"41.0","current":true,"state":"WA"},{"bom_id":66062,"name":"SYDNEY (OBSERVATORY HILL)","lat":-33.8607,"lng":151.205,"wmo":"94768","height":"39.0","current":true,"state":"NSW"},{"bom_id":66037,"name":"SYDNEY AIRPORT AMO","lat":-33.9465,"lng":151.1731,"wmo":"94767","height":"6.0","current":true,"state":"NSW"},{"bom_id":66196,"name":"SYDNEY HARBOUR (WEDDING CAKE WEST)","lat":-33.8405,"lng":151.2643,"wmo":"95766","height":"6.0","current":true,"state":"NSW"},{"bom_id":66212,"name":"SYDNEY OLYMPIC PARK AWS (ARCHERY CENTRE)","lat":-33.8338,"lng":151.0718,"wmo":"95765","height":"4.0","current":true,"state":"NSW"},{"bom_id":55325,"name":"TAMWORTH AIRPORT AWS","lat":-31.0742,"lng":150.8362,"wmo":"95762","height":"394.9","current":true,"state":"NSW"},{"bom_id":16098,"name":"TARCOOLA AERO","lat":-30.7051,"lng":134.5786,"wmo":"94655","height":"123.0","current":true,"state":"SA"},{"bom_id":60141,"name":"TAREE AIRPORT AWS","lat":-31.8896,"lng":152.512,"wmo":"95784","height":"8.0","current":true,"state":"NSW"},{"bom_id":94155,"name":"TASMAN ISLAND","lat":-43.2397,"lng":148.0025,"wmo":"95986","height":"240.0","current":true,"state":"TAS"},{"bom_id":81049,"name":"TATURA INST SUSTAINABLE AG","lat":-36.4378,"lng":145.2672,"wmo":"95836","height":"114.0","current":true,"state":"VIC"},{"bom_id":13030,"name":"TELFER AERO","lat":-21.7125,"lng":122.2281,"wmo":"94319","height":"291.9","current":true,"state":"WA"},{"bom_id":73151,"name":"TEMORA AIRPORT","lat":-34.4292,"lng":147.5111,"wmo":"95722","height":"280.5","current":true,"state":"NSW"},{"bom_id":15135,"name":"TENNANT CREEK AIRPORT","lat":-19.6423,"lng":134.1833,"wmo":"94238","height":"375.7","current":true,"state":"NT"},{"bom_id":66059,"name":"TERREY HILLS AWS","lat":-33.6908,"lng":151.2253,"wmo":"94759","height":"199.0","current":true,"state":"NSW"},{"bom_id":15643,"name":"TERRITORY GRAPE FARM","lat":-22.4518,"lng":133.6377,"wmo":"94328","height":"565.6","current":true,"state":"NT"},{"bom_id":40908,"name":"TEWANTIN RSL PARK","lat":-26.3911,"lng":153.0403,"wmo":"94570","height":"6.4","current":true,"state":"QLD"},{"bom_id":39089,"name":"THANGOOL AIRPORT","lat":-24.4935,"lng":150.5709,"wmo":"94376","height":"193.1","current":true,"state":"QLD"},{"bom_id":45025,"name":"THARGOMINDAH AIRPORT","lat":-27.9867,"lng":143.815,"wmo":"95492","height":"130.9","current":true,"state":"QLD"},{"bom_id":37034,"name":"THE MONUMENT AIRPORT","lat":-21.8125,"lng":139.9267,"wmo":"94336","height":"288.4","current":true,"state":"QLD"},{"bom_id":5084,"name":"THEVENARD ISLAND","lat":-21.4606,"lng":115.0197,"wmo":"94303","height":"5.0","current":true,"state":"WA"},{"bom_id":71032,"name":"THREDBO AWS","lat":-36.4917,"lng":148.2859,"wmo":"95909","height":"1957.0","current":true,"state":"NSW"},{"bom_id":46126,"name":"TIBOOBURRA AIRPORT","lat":-29.4448,"lng":142.0567,"wmo":"95485","height":"176.4","current":true,"state":"NSW"},{"bom_id":14932,"name":"TINDAL RAAF","lat":-14.5229,"lng":132.3826,"wmo":"94131","height":"133.6","current":true,"state":"NT"},{"bom_id":40555,"name":"TOOLARA (KELLY)","lat":-25.9713,"lng":152.8609,"wmo":"94558","height":"143.0","current":true,"state":"QLD"},{"bom_id":41529,"name":"TOOWOOMBA AIRPORT","lat":-27.5425,"lng":151.9134,"wmo":"95551","height":"640.9","current":true,"state":"QLD"},{"bom_id":32040,"name":"TOWNSVILLE AERO","lat":-19.2483,"lng":146.7661,"wmo":"94294","height":"4.3","current":true,"state":"QLD"},{"bom_id":51049,"name":"TRANGIE RESEARCH STATION AWS","lat":-31.9861,"lng":147.9489,"wmo":"95710","height":"215.0","current":true,"state":"NSW"},{"bom_id":37036,"name":"TREPELL AIRPORT","lat":-21.84,"lng":140.8925,"wmo":"94338","height":"266.2","current":true,"state":"QLD"},{"bom_id":1007,"name":"TROUGHTON ISLAND","lat":-13.7542,"lng":126.1485,"wmo":"94102","height":"6.0","current":true,"state":"WA"},{"bom_id":1020,"name":"TRUSCOTT","lat":-14.09,"lng":126.3867,"wmo":"95101","height":"51.0","current":true,"state":"WA"},{"bom_id":70339,"name":"TUGGERANONG (ISABELLA PLAINS) AWS","lat":-35.4184,"lng":149.0937,"wmo":"94925","height":"586.7","current":true,"state":"NSW"},{"bom_id":94195,"name":"TUNNACK FIRE STATION","lat":-42.4543,"lng":147.4612,"wmo":"94960","height":"461.5","current":true,"state":"TAS"},{"bom_id":69138,"name":"ULLADULLA AWS","lat":-35.3635,"lng":150.4827,"wmo":"94938","height":"35.7","current":true,"state":"NSW"},{"bom_id":40082,"name":"UNIVERSITY OF QUEENSLAND GATTON","lat":-27.5436,"lng":152.3375,"wmo":"94562","height":"89.0","current":true,"state":"QLD"},{"bom_id":200100,"name":"VARANUS ISLAND","lat":-20.6564,"lng":115.5758,"wmo":"95303","height":"24.0","current":true,"state":"WA"},{"bom_id":14825,"name":"VICTORIA RIVER DOWNS","lat":-16.403,"lng":131.0145,"wmo":"94232","height":"88.5","current":true,"state":"NT"},{"bom_id":86068,"name":"VIEWBANK (ARPANSA)","lat":-37.7408,"lng":145.0972,"wmo":"95874","height":"66.1","current":true,"state":"VIC"},{"bom_id":72150,"name":"WAGGA WAGGA AMO","lat":-35.1583,"lng":147.4573,"wmo":"94910","height":"212.0","current":true,"state":"NSW"},{"bom_id":52088,"name":"WALGETT AIRPORT AWS","lat":-30.0372,"lng":148.1223,"wmo":"95715","height":"133.0","current":true,"state":"NSW"},{"bom_id":88162,"name":"WALLAN (KILMORE GAP)","lat":-37.3807,"lng":144.9654,"wmo":"94860","height":"527.8","current":true,"state":"VIC"},{"bom_id":76064,"name":"WALPEUP RESEARCH","lat":-35.1201,"lng":142.004,"wmo":"95831","height":"105.0","current":true,"state":"VIC"},{"bom_id":15664,"name":"WALUNGURRU","lat":-23.27,"lng":129.38,"wmo":"94321","height":"454.3","current":true,"state":"NT"},{"bom_id":10917,"name":"WANDERING","lat":-32.6722,"lng":116.6706,"wmo":"95640","height":"275.0","current":true,"state":"WA"},{"bom_id":82138,"name":"WANGARATTA AERO","lat":-36.4206,"lng":146.3056,"wmo":"94889","height":"152.6","current":true,"state":"VIC"},{"bom_id":13011,"name":"WARBURTON AIRFIELD","lat":-26.1317,"lng":126.5839,"wmo":"94457","height":"459.0","current":true,"state":"WA"},{"bom_id":97024,"name":"WARRA","lat":-43.0609,"lng":146.704,"wmo":"95962","height":"495.0","current":true,"state":"TAS"},{"bom_id":90186,"name":"WARRNAMBOOL AIRPORT NDB","lat":-38.2867,"lng":142.4522,"wmo":"94837","height":"70.8","current":true,"state":"VIC"},{"bom_id":14401,"name":"WARRUWI","lat":-11.6502,"lng":133.3796,"wmo":"94139","height":"19.2","current":true,"state":"NT"},{"bom_id":41525,"name":"WARWICK","lat":-28.2061,"lng":152.1003,"wmo":"94555","height":"475.4","current":true,"state":"QLD"},{"bom_id":27045,"name":"WEIPA AERO","lat":-12.6778,"lng":141.9208,"wmo":"94170","height":"18.0","current":true,"state":"QLD"},{"bom_id":3096,"name":"WEST ROEBUCK","lat":-17.8964,"lng":122.3122,"wmo":"95204","height":"32.0","current":true,"state":"WA"},{"bom_id":50017,"name":"WEST WYALONG AIRPORT AWS","lat":-33.9382,"lng":147.1962,"wmo":"95709","height":"257.0","current":true,"state":"NSW"},{"bom_id":89112,"name":"WESTMERE","lat":-37.7067,"lng":142.9378,"wmo":"95840","height":"226.0","current":true,"state":"VIC"},{"bom_id":46129,"name":"WHITE CLIFFS AWS","lat":-30.8517,"lng":143.0742,"wmo":"95699","height":"158.0","current":true,"state":"NSW"},{"bom_id":18120,"name":"WHYALLA AERO","lat":-33.0539,"lng":137.5205,"wmo":"95664","height":"6.5","current":true,"state":"SA"},{"bom_id":46012,"name":"WILCANNIA AERODROME AWS","lat":-31.5194,"lng":143.385,"wmo":"95695","height":"94.3","current":true,"state":"NSW"},{"bom_id":300050,"name":"WILKINS RUNWAY EAST","lat":-66.6831,"lng":111.5317,"wmo":"89615","height":"753.0","current":true,"state":"ANT"},{"bom_id":33195,"name":"WILLIAMSON","lat":-22.4703,"lng":150.1786,"wmo":"95370","height":"27.6","current":true,"state":"QLD"},{"bom_id":61078,"name":"WILLIAMTOWN RAAF","lat":-32.7932,"lng":151.8359,"wmo":"94776","height":"9.0","current":true,"state":"NSW"},{"bom_id":200283,"name":"WILLIS ISLAND","lat":-16.2878,"lng":149.9652,"wmo":"94299","height":"8.1","current":true,"state":"QLD"},{"bom_id":85096,"name":"WILSONS PROMONTORY LIGHTHOUSE","lat":-39.1297,"lng":146.4244,"wmo":"94893","height":"95.0","current":true,"state":"VIC"},{"bom_id":37039,"name":"WINTON AIRPORT","lat":-22.3617,"lng":143.0836,"wmo":"94342","height":"192.2","current":true,"state":"QLD"},{"bom_id":9746,"name":"WITCHCLIFFE","lat":-34.0281,"lng":115.1042,"wmo":"95641","height":"80.0","current":true,"state":"WA"},{"bom_id":33307,"name":"WOOLSHED","lat":-19.4167,"lng":146.5364,"wmo":"95293","height":"556.0","current":true,"state":"QLD"},{"bom_id":16001,"name":"WOOMERA AERODROME","lat":-31.1558,"lng":136.8054,"wmo":"94659","height":"166.6","current":true,"state":"SA"},{"bom_id":18083,"name":"WUDINNA AERO","lat":-33.043,"lng":135.4519,"wmo":"95654","height":"86.4","current":true,"state":"SA"},{"bom_id":1006,"name":"WYNDHAM AERO","lat":-15.51,"lng":128.1503,"wmo":"95214","height":"3.8","current":true,"state":"WA"},{"bom_id":91107,"name":"WYNYARD AIRPORT","lat":-40.9964,"lng":145.7311,"wmo":"95957","height":"12.0","current":true,"state":"TAS"},{"bom_id":58012,"name":"YAMBA PILOT STATION","lat":-29.4333,"lng":153.3633,"wmo":"94589","height":"27.4","current":true,"state":"NSW"},{"bom_id":74037,"name":"YANCO AGRICULTURAL INSTITUTE","lat":-34.6223,"lng":146.4328,"wmo":"95705","height":"164.0","current":true,"state":"NSW"},{"bom_id":85151,"name":"YARRAM AIRPORT","lat":-38.5647,"lng":146.7479,"wmo":"95890","height":"17.9","current":true,"state":"VIC"},{"bom_id":81124,"name":"YARRAWONGA","lat":-36.0294,"lng":146.0306,"wmo":"94862","height":"128.9","current":true,"state":"VIC"},{"bom_id":33294,"name":"YEPPOON THE ESPLANADE","lat":-23.1364,"lng":150.7506,"wmo":"94373","height":"5.5","current":true,"state":"QLD"},{"bom_id":73138,"name":"YOUNG AIRPORT","lat":-34.2493,"lng":148.2475,"wmo":"94712","height":"379.6","current":true,"state":"NSW"},{"bom_id":15635,"name":"YULARA AERO","lat":-25.1896,"lng":130.9737,"wmo":"94462","height":"492.0","current":true,"state":"NT"},{"bom_id":20062,"name":"YUNTA AIRSTRIP","lat":-32.5707,"lng":139.5645,"wmo":"94684","height":"300.0","current":true,"state":"SA"}]